,City,Lat,Lng,Max Temp,Humidity,Cloudiness,Wind Speed,Country,Date
0,mataura,-46.1927,168.8643,75.0,52.0,100.0,10.0,NZ,1611695651.0
1,samarai,-10.6167,150.6667,82.24,74.0,100.0,6.96,PG,1611695531.0
2,port alfred,-33.5906,26.891,69.01,95.0,88.0,1.01,ZA,1611695652.0
3,egvekinot,66.3167,-179.1667,-15.38,87.0,62.0,12.24,RU,1611695652.0
4,atuona,-9.8,-139.0333,78.35,76.0,3.0,16.55,PF,1611695652.0
5,mar del plata,-38.0023,-57.5575,75.0,88.0,0.0,6.91,AR,1611695360.0
6,tiksi,71.6872,128.8694,-36.83,83.0,95.0,2.64,RU,1611695652.0
7,yangambi,0.8102,24.4336,71.56,92.0,31.0,2.82,CD,1611695652.0
8,avarua,-21.2078,-159.775,86.0,66.0,77.0,17.27,CK,1611695358.0
9,faanui,-16.4833,-151.75,81.27,74.0,14.0,16.6,PF,1611695455.0
10,sentyabrskiy,,,,,,,,
11,agua dulce,18.1333,-94.1333,93.2,33.0,1.0,19.57,MX,1611695653.0
12,yayva,59.3303,57.2641,26.01,98.0,99.0,5.59,RU,1611695653.0
13,azimur,,,,,,,,
14,illoqqortoormiut,,,,,,,,
15,cape town,-33.9258,18.4232,68.0,77.0,20.0,20.71,ZA,1611695654.0
16,busselton,-33.65,115.3333,55.0,95.0,66.0,11.97,AU,1611694969.0
17,georgetown,5.4112,100.3354,79.0,94.0,20.0,4.94,MY,1611695257.0
18,carmen,18.6333,-91.8333,87.8,62.0,1.0,14.97,MX,1611695654.0
19,hermanus,-34.4187,19.2345,61.0,87.0,0.0,6.29,ZA,1611695654.0
20,evanston,42.0411,-87.6901,32.0,86.0,90.0,13.8,US,1611695654.0
21,sinnamary,5.3833,-52.95,78.82,82.0,66.0,14.03,GF,1611695655.0
22,khatanga,71.9667,102.5,-24.59,82.0,47.0,8.41,RU,1611695655.0
23,half moon bay,37.4636,-122.4286,52.0,71.0,1.0,14.97,US,1611695655.0
24,east london,-33.0153,27.9116,74.39,78.0,100.0,10.04,ZA,1611695396.0
25,carnarvon,-24.8667,113.6333,69.8,73.0,40.0,19.57,AU,1611695469.0
26,north bend,43.4065,-124.2243,42.8,70.0,90.0,13.8,US,1611695655.0
27,yulara,-25.2406,130.9889,75.2,83.0,90.0,6.91,AU,1611695656.0
28,pevek,69.7008,170.3133,-30.24,85.0,15.0,2.35,RU,1611695656.0
29,tucuman,-26.8241,-65.2226,89.6,43.0,75.0,6.91,AR,1611695493.0
30,eyrarbakki,63.863,-21.1481,28.4,43.0,0.0,18.41,IS,1611695656.0
31,saleaula,,,,,,,,
32,kurobe,,,,,,,,
33,torbay,47.6666,-52.7314,34.0,100.0,90.0,19.57,CA,1611695656.0
34,mazamari,-11.3258,-74.5308,82.87,62.0,98.0,3.74,PE,1611695657.0
35,glendive,47.1053,-104.7125,16.0,79.0,90.0,13.8,US,1611695657.0
36,warqla,,,,,,,,
37,storslett,69.7678,21.0247,14.49,87.0,23.0,12.62,NO,1611695657.0
38,puerto ayora,-0.7393,-90.3518,79.0,83.0,75.0,9.22,EC,1611695657.0
39,bluff,-46.6,168.3333,75.0,52.0,100.0,10.0,NZ,1611695657.0
40,taolanaro,,,,,,,,
41,castro,-24.7911,-50.0119,68.56,92.0,100.0,4.03,BR,1611695658.0
42,hithadhoo,-0.6,73.0833,78.67,84.0,71.0,11.03,MV,1611695387.0
43,saldanha,-33.0117,17.9442,64.4,77.0,19.0,11.5,ZA,1611695658.0
44,loanda,-8.8368,13.2343,80.6,78.0,20.0,5.75,AO,1611695615.0
45,kapaa,22.0752,-159.319,75.99,83.0,90.0,19.57,US,1611695658.0
46,bambous virieux,-20.3428,57.7575,75.99,88.0,20.0,4.61,MU,1611695658.0
47,bonavista,48.6499,-53.1147,34.0,86.0,100.0,6.91,CA,1611695658.0
48,ancud,-41.8697,-73.8203,60.8,55.0,90.0,11.5,CL,1611695659.0
49,amderma,,,,,,,,
50,byron bay,-28.65,153.6167,72.0,94.0,13.0,6.49,AU,1611695659.0
51,butaritari,3.0707,172.7902,80.51,76.0,71.0,6.8,KI,1611695659.0
52,talcahuano,-36.7167,-73.1167,69.8,43.0,0.0,20.71,CL,1611695415.0
53,rikitea,-23.1203,-134.9692,80.15,69.0,33.0,11.86,PF,1611695281.0
54,saint-philippe,-21.3585,55.7679,77.0,69.0,0.0,6.91,RE,1611695659.0
55,punta arenas,-53.15,-70.9167,50.0,50.0,20.0,27.63,CL,1611695659.0
56,zeya,53.75,127.2667,-10.25,87.0,100.0,3.51,RU,1611695660.0
57,kamarion,36.8,25.8167,63.0,75.0,100.0,8.99,GR,1611695660.0
58,sola,-13.8833,167.55,83.43,79.0,100.0,22.17,VU,1611695660.0
59,ribeira grande,38.5167,-28.7,64.4,88.0,75.0,20.71,PT,1611695660.0
60,yellowknife,62.456,-114.3525,-11.99,70.0,75.0,9.22,CA,1611695650.0
61,tashla,51.7716,52.7427,18.01,97.0,100.0,10.38,RU,1611695660.0
62,laguna,38.421,-121.4238,50.0,53.0,20.0,10.36,US,1611695661.0
63,ushuaia,-54.8,-68.3,42.8,70.0,90.0,28.77,AR,1611695661.0
64,jamestown,42.097,-79.2353,36.0,100.0,90.0,11.72,US,1611695164.0
65,ust-ilimsk,58.0006,102.6619,-35.79,80.0,0.0,0.98,RU,1611695661.0
66,omsukchan,62.5333,155.8,-27.35,83.0,100.0,4.94,RU,1611695661.0
67,bagdarin,54.4333,113.6,-14.21,81.0,100.0,4.72,RU,1611695661.0
68,oranjestad,12.524,-70.027,78.8,89.0,75.0,11.5,AW,1611695622.0
69,batagay-alyta,67.8006,130.4114,-40.31,80.0,0.0,0.18,RU,1611695662.0
70,lagoa,39.05,-27.9833,62.35,85.0,100.0,36.91,PT,1611695428.0
71,quatre cocos,-20.2078,57.7625,75.99,88.0,20.0,4.61,MU,1611695662.0
72,staryy nadym,65.6118,72.6842,-25.15,87.0,100.0,7.9,RU,1611695662.0
73,asosa,10.0667,34.5333,71.92,36.0,38.0,2.26,ET,1611695662.0
74,faya,18.3851,42.4509,59.0,51.0,0.0,3.27,SA,1611695662.0
75,thompson,55.7435,-97.8558,-4.0,65.0,40.0,3.44,CA,1611695663.0
76,vaini,-21.2,-175.2,78.8,89.0,75.0,6.91,TO,1611695663.0
77,kindu,-2.95,25.95,72.39,84.0,100.0,2.73,CD,1611695663.0
78,albany,42.6001,-73.9662,27.0,75.0,100.0,9.37,US,1611695663.0
79,nikolskoye,59.7035,30.7861,35.01,93.0,75.0,8.95,RU,1611695663.0
80,samusu,,,,,,,,
81,bowen,-20.0167,148.2333,75.2,94.0,75.0,5.75,AU,1611695664.0
82,provideniya,64.3833,-173.3,6.8,78.0,90.0,11.18,RU,1611695428.0
83,san quintin,30.4833,-115.95,56.71,53.0,11.0,17.78,MX,1611695664.0
84,qaanaaq,77.484,-69.3632,-14.64,65.0,0.0,6.98,GL,1611695664.0
85,katihar,25.5333,87.5833,52.16,53.0,0.0,6.69,IN,1611695664.0
86,chuy,-33.6971,-53.4616,80.6,65.0,98.0,8.79,UY,1611695664.0
87,beringovskiy,63.05,179.3167,-8.72,90.0,100.0,12.73,RU,1611695664.0
88,porto novo,6.4965,2.6036,84.2,79.0,0.0,11.5,BJ,1611695460.0
89,horsham,51.064,-0.3272,43.0,93.0,75.0,12.66,GB,1611695665.0
90,lolua,,,,,,,,
91,henties bay,-22.116,14.2845,69.01,88.0,47.0,4.45,NA,1611695665.0
92,barrow,71.2906,-156.7887,-11.2,70.0,1.0,5.75,US,1611695665.0
93,sabya,17.1495,42.6254,75.2,78.0,59.0,5.75,SA,1611695665.0
94,chumikan,54.7183,135.315,-9.87,90.0,100.0,6.82,RU,1611695665.0
95,yeppoon,-23.1333,150.7333,75.2,83.0,20.0,5.75,AU,1611695073.0
96,lorengau,-2.0226,147.2712,82.89,75.0,99.0,10.02,PG,1611695666.0
97,los llanos de aridane,28.6585,-17.9182,64.4,72.0,20.0,11.5,ES,1611695666.0
98,baoro,5.6667,15.9667,73.98,28.0,2.0,3.8,CF,1611695472.0
99,bubaque,11.2833,-15.8333,78.22,75.0,0.0,13.24,GW,1611695666.0
100,klaksvik,62.2266,-6.589,30.2,74.0,92.0,5.75,FO,1611695666.0
101,port blair,11.6667,92.75,76.93,84.0,3.0,7.78,IN,1611695667.0
102,matamoros,25.5333,-103.25,80.6,6.0,75.0,13.8,MX,1611695667.0
103,tutoia,-2.7619,-42.2744,84.2,74.0,75.0,13.8,BR,1611695667.0
104,grindavik,63.8424,-22.4338,26.6,54.0,0.0,18.41,IS,1611695667.0
105,lasa,46.6166,10.7002,28.4,69.0,0.0,2.3,IT,1611695667.0
106,san patricio,28.017,-97.5169,80.6,61.0,1.0,6.91,US,1611695667.0
107,cidreira,-30.1811,-50.2056,77.49,85.0,72.0,12.55,BR,1611695668.0
108,san cristobal,7.7669,-72.225,86.0,54.0,40.0,10.36,VE,1611695668.0
109,leningradskiy,69.3833,178.4167,-18.44,86.0,99.0,8.39,RU,1611695668.0
110,roald,62.5833,6.1333,28.99,93.0,20.0,5.75,NO,1611695668.0
111,clacton-on-sea,51.7897,1.156,39.99,95.0,100.0,8.01,GB,1611695668.0
112,vila velha,-20.3297,-40.2925,86.0,69.0,20.0,16.11,BR,1611695575.0
113,opobo,,,,,,,,
114,upernavik,72.7868,-56.1549,1.18,88.0,100.0,12.77,GL,1611695659.0
115,padang,-0.9492,100.3543,75.2,88.0,75.0,2.3,ID,1611695516.0
116,temaraia,,,,,,,,
117,ulladulla,-35.35,150.4667,64.99,100.0,90.0,11.5,AU,1611695669.0
118,talnakh,69.4865,88.3972,-23.24,81.0,100.0,9.22,RU,1611695669.0
119,tsihombe,,,,,,,,
120,ray,23.6833,85.05,51.53,65.0,6.0,1.66,IN,1611695670.0
121,attawapiskat,,,,,,,,
122,belushya guba,,,,,,,,
123,new norfolk,-42.7826,147.0587,55.0,66.0,2.0,1.99,AU,1611695670.0
124,longyearbyen,78.2186,15.6401,5.0,43.0,0.0,18.41,SJ,1611695670.0
125,ahipara,-35.1667,173.1667,72.73,66.0,0.0,0.78,NZ,1611695670.0
126,marcona,,,,,,,,
127,port keats,-14.25,129.55,77.18,90.0,100.0,6.4,AU,1611695671.0
128,berlevag,70.8578,29.0864,24.8,86.0,75.0,31.07,NO,1611695671.0
129,mehamn,71.0357,27.8492,26.6,68.0,90.0,20.71,NO,1611695671.0
130,rawlins,41.7911,-107.2387,14.0,73.0,90.0,0.85,US,1611695671.0
131,mahebourg,-20.4081,57.7,73.4,88.0,20.0,4.61,MU,1611695671.0
132,hobart,-42.8794,147.3294,55.0,58.0,75.0,9.22,AU,1611695671.0
133,usinsk,65.9939,57.5281,-19.44,85.0,100.0,14.12,RU,1611695671.0
134,ruatoria,,,,,,,,
135,ambilobe,-13.2,49.05,75.83,91.0,97.0,1.45,MG,1611695672.0
136,bethel,41.3712,-73.414,28.0,86.0,90.0,9.22,US,1611695672.0
137,katsuura,35.1333,140.3,44.6,93.0,75.0,2.3,JP,1611695524.0
138,kidal,18.4411,1.4078,68.63,17.0,0.0,8.84,ML,1611695672.0
139,lodwar,3.1191,35.5973,80.08,37.0,11.0,6.87,KE,1611695672.0
140,margate,51.3813,1.3862,39.99,84.0,100.0,4.0,GB,1611695673.0
141,wald,47.276,8.9141,32.0,69.0,90.0,4.61,CH,1611695673.0
142,severo-kurilsk,50.6789,156.125,24.22,95.0,83.0,22.53,RU,1611695673.0
143,tasiilaq,65.6145,-37.6368,10.4,52.0,90.0,13.8,GL,1611695673.0
144,naze,28.3667,129.4833,60.78,84.0,77.0,9.19,JP,1611695673.0
145,buritis,-15.6178,-46.4233,79.34,74.0,94.0,0.83,BR,1611695673.0
146,sorland,67.667,12.6934,30.2,74.0,20.0,12.66,NO,1611695674.0
147,omboue,-1.5746,9.2618,78.26,88.0,100.0,4.47,GA,1611695674.0
148,cabedelo,-6.9811,-34.8339,82.4,74.0,20.0,13.8,BR,1611695674.0
149,nizwa,22.9333,57.5333,57.16,60.0,58.0,2.17,OM,1611695674.0
150,lebu,-37.6167,-73.65,59.52,65.0,0.0,18.75,CL,1611695674.0
151,tiznit,29.5833,-9.5,65.44,41.0,0.0,2.64,MA,1611695674.0
152,hami,42.8,93.45,18.36,81.0,8.0,7.47,CN,1611695675.0
153,mrirt,,,,,,,,
154,turukhansk,65.8167,87.9833,-24.12,79.0,100.0,16.69,RU,1611695675.0
155,sambava,-14.2667,50.1667,78.39,79.0,100.0,3.33,MG,1611695524.0
156,ust-tsilma,65.441,52.1498,-2.67,92.0,100.0,7.18,RU,1611695675.0
157,thung song,8.1645,99.6804,72.99,86.0,71.0,5.82,TH,1611695675.0
158,tuatapere,-46.1333,167.6833,75.0,52.0,100.0,10.0,NZ,1611695676.0
159,arraial do cabo,-22.9661,-42.0278,84.2,65.0,0.0,17.27,BR,1611695676.0
160,bonoua,5.2741,-3.595,80.6,94.0,61.0,4.61,CI,1611695676.0
161,saint-georges,12.0564,-61.7485,82.4,65.0,20.0,13.8,GD,1611695125.0
162,mahajanga,-15.7167,46.3167,78.8,89.0,20.0,3.44,MG,1611695676.0
163,saskylakh,71.9167,114.0833,-33.88,82.0,4.0,2.82,RU,1611695676.0
164,geraldton,-28.7667,114.6,67.46,75.0,12.0,15.9,AU,1611695676.0
165,palmer,42.1584,-72.3287,30.0,86.0,90.0,5.06,US,1611695677.0
166,saint-augustin,51.226,-58.6502,27.64,93.0,47.0,14.67,CA,1611695531.0
167,san clemente,33.427,-117.612,55.99,50.0,0.0,1.99,US,1611695433.0
168,flinders,-34.5833,150.8552,71.01,82.0,100.0,7.0,AU,1611695677.0
169,pacific grove,36.6177,-121.9166,52.0,54.0,75.0,6.91,US,1611695656.0
170,maniitsoq,65.4167,-52.9,13.37,88.0,87.0,5.93,GL,1611695677.0
171,ola,59.5833,151.2833,-9.8,85.0,98.0,11.14,RU,1611695677.0
172,digha,21.6833,87.55,64.31,52.0,0.0,9.57,IN,1611695678.0
173,zhigansk,66.7697,123.3711,-48.59,76.0,97.0,8.23,RU,1611695678.0
174,wilmington,34.2257,-77.9447,71.01,78.0,1.0,11.5,US,1611695074.0
175,batagay,67.6333,134.6333,-48.78,75.0,38.0,1.16,RU,1611695678.0
176,rocha,-34.4833,-54.3333,87.06,45.0,23.0,11.1,UY,1611695546.0
177,kununurra,-15.7667,128.7333,75.2,90.0,100.0,3.44,AU,1611695112.0
178,iqaluit,63.7506,-68.5145,-2.0,71.0,1.0,18.41,CA,1611695678.0
179,nurota,40.5614,65.6886,26.6,93.0,0.0,2.3,UZ,1611695679.0
180,balancan,17.8,-91.5333,87.89,64.0,0.0,12.21,MX,1611695679.0
181,acajutla,13.5928,-89.8275,87.8,42.0,0.0,2.3,SV,1611695679.0
182,tombouctou,20.0,-3.0,71.94,16.0,0.0,11.95,ML,1611695679.0
183,bara,10.3744,10.7288,76.98,20.0,16.0,8.39,NG,1611695679.0
184,aklavik,68.2191,-135.0107,-11.2,77.0,90.0,3.44,CA,1611695679.0
185,tilichiki,60.4667,166.1,-11.88,89.0,100.0,14.99,RU,1611695680.0
186,hofn,64.2539,-15.2082,24.94,89.0,10.0,24.34,IS,1611695680.0
187,paamiut,61.994,-49.6678,16.9,79.0,31.0,10.4,GL,1611695680.0
188,necochea,-38.5473,-58.7368,72.36,81.0,93.0,9.82,AR,1611695680.0
189,nizhneyansk,,,,,,,,
190,katobu,-4.9408,122.5276,75.87,91.0,100.0,3.36,ID,1611695680.0
191,kavieng,-2.5744,150.7967,83.57,72.0,85.0,8.46,PG,1611695680.0
192,ullapool,57.8987,-5.1604,37.0,67.0,100.0,3.0,GB,1611695681.0
193,ormara,25.2088,64.6357,65.71,55.0,0.0,5.79,PK,1611695681.0
194,pinar del rio,22.4175,-83.6981,81.64,65.0,25.0,11.34,CU,1611695681.0
195,namibe,-15.1961,12.1522,76.69,74.0,16.0,8.5,AO,1611695681.0
196,cabo san lucas,22.8909,-109.9124,71.01,59.0,40.0,11.5,MX,1611695669.0
197,sargatskoye,55.6101,73.4972,24.69,98.0,97.0,13.69,RU,1611695681.0
198,luderitz,-26.6481,15.1594,68.25,63.0,54.0,25.19,NA,1611695682.0
199,esperance,-33.8667,121.9,60.8,82.0,100.0,13.8,AU,1611695469.0
200,ereymentau,51.6199,73.1033,22.53,97.0,99.0,16.22,KZ,1611695682.0
201,glubokoe,,,,,,,,
202,ponta do sol,32.6667,-17.1,57.99,73.0,21.0,1.99,PT,1611695682.0
203,barcelona,41.3888,2.159,54.0,87.0,20.0,9.22,ES,1611695654.0
204,hammond,41.5834,-87.5,32.0,86.0,90.0,8.05,US,1611695682.0
205,nishihara,26.1842,127.7558,64.4,82.0,75.0,16.11,JP,1611695683.0
206,svetlyy,54.675,20.1347,34.0,86.0,75.0,15.66,RU,1611695683.0
207,marzuq,14.4,46.4667,57.04,38.0,0.0,0.87,YE,1611695683.0
208,santa maria,-29.6842,-53.8069,82.4,74.0,75.0,6.91,BR,1611695540.0
209,atikokan,48.7555,-91.6216,1.96,90.0,85.0,4.9,CA,1611695683.0
210,avera,33.194,-82.5271,71.6,94.0,90.0,4.61,US,1611695683.0
211,fortuna,40.5982,-124.1573,42.01,93.0,1.0,36.82,US,1611695453.0
212,fuxin,42.0156,121.6589,12.9,73.0,0.0,2.84,CN,1611695684.0
213,svirstroy,60.7999,33.7248,33.19,94.0,100.0,5.79,RU,1611695684.0
214,benjamin hill,30.1667,-111.1,54.0,54.0,100.0,13.0,MX,1611695684.0
215,davila,18.4726,120.5763,74.77,84.0,8.0,20.24,PH,1611695684.0
216,khani,41.9563,42.9566,50.0,37.0,0.0,12.66,GE,1611695684.0
217,houma,29.5958,-90.7195,66.2,88.0,90.0,5.75,US,1611695685.0
218,zanjan,36.6736,48.4787,24.93,81.0,0.0,0.94,IR,1611695685.0
219,rolim de moura,,,,,,,,
220,buribay,51.9617,58.1592,29.23,97.0,100.0,8.57,RU,1611695685.0
221,podgornoye,51.735,39.1496,33.8,100.0,90.0,13.42,RU,1611695685.0
222,bredasdorp,-34.5322,20.0403,62.6,77.0,0.0,1.14,ZA,1611695685.0
223,herouville-saint-clair,49.2109,-0.3065,39.2,75.0,75.0,19.57,FR,1611695686.0
224,satitoa,,,,,,,,
225,mount isa,-20.7333,139.5,77.0,83.0,59.0,7.16,AU,1611695686.0
226,dikson,73.5069,80.5464,-24.27,85.0,100.0,6.11,RU,1611695686.0
227,axixa do tocantins,,,,,,,,
228,airai,-8.9266,125.4092,59.74,100.0,98.0,3.09,TL,1611695687.0
229,ville-marie,47.3335,-79.433,15.8,79.0,90.0,11.5,CA,1611695687.0
230,asau,46.4333,26.4,32.0,70.0,100.0,3.71,RO,1611695687.0
231,karkaralinsk,,,,,,,,
232,shenzhen,22.5455,114.0683,68.0,82.0,2.0,6.98,CN,1611695632.0
233,kutum,14.2,24.6667,59.25,28.0,17.0,4.25,SD,1611695687.0
234,muisne,0.6,-80.0333,78.8,100.0,75.0,4.61,EC,1611695687.0
235,praia,14.9215,-23.5087,73.4,56.0,0.0,14.97,CV,1611695688.0
236,bilma,18.6853,12.9164,64.98,19.0,0.0,7.49,NE,1611695688.0
237,sao joao da barra,-21.6403,-41.0511,84.2,58.0,0.0,23.02,BR,1611695688.0
238,lompoc,34.6391,-120.4579,54.0,47.0,8.0,12.66,US,1611695688.0
239,chokurdakh,70.6333,147.9167,-30.57,81.0,99.0,5.75,RU,1611695688.0
240,ucluelet,48.9329,-125.5528,43.0,65.0,90.0,12.66,CA,1611695673.0
241,coahuayana,18.7333,-103.6833,82.4,36.0,40.0,6.78,MX,1611695688.0
242,remanso,-9.6179,-42.0831,84.49,45.0,28.0,4.68,BR,1611695689.0
243,menongue,-14.6585,17.691,63.1,91.0,100.0,6.49,AO,1611695689.0
244,port elizabeth,-33.918,25.5701,68.0,94.0,90.0,9.22,ZA,1611695689.0
245,bileca,42.8719,18.4297,41.0,35.0,0.0,19.57,BA,1611695470.0
246,bani,18.2833,-70.3333,80.01,83.0,75.0,12.35,DO,1611695689.0
247,cam ranh,11.9214,109.1591,73.4,83.0,20.0,13.8,VN,1611695689.0
248,labutta,,,,,,,,
249,oriximina,-1.7656,-55.8661,82.0,85.0,66.0,3.13,BR,1611695690.0
250,port hardy,50.6996,-127.4199,42.8,81.0,75.0,27.63,CA,1611695690.0
251,tumannyy,,,,,,,,
252,tuxpan,19.55,-103.4,82.4,36.0,40.0,7.27,MX,1611695636.0
253,cururupu,-1.8283,-44.8683,80.29,77.0,71.0,4.54,BR,1611695690.0
254,skagen,57.7209,10.5839,36.64,80.0,31.0,5.59,DK,1611695118.0
255,miyako,39.6367,141.9525,45.25,87.0,100.0,7.54,JP,1611695690.0
256,atar,20.5169,-13.0499,71.8,19.0,0.0,7.29,MR,1611695691.0
257,ipixuna,-1.7625,-48.8043,82.4,78.0,75.0,6.91,BR,1611695691.0
258,vila franca do campo,37.7167,-25.4333,62.6,88.0,75.0,19.57,PT,1611695691.0
259,saurimo,-9.6608,20.3916,65.95,93.0,99.0,3.27,AO,1611695691.0
260,jizan,17.3333,42.6667,75.2,78.0,97.0,5.75,SA,1611695691.0
261,sawakin,19.1059,37.3321,73.45,82.0,44.0,6.02,SD,1611695691.0
262,la palma,33.8464,-118.0467,57.2,30.0,20.0,4.43,US,1611695692.0
263,barranco,9.5167,-82.7,82.4,69.0,75.0,6.91,PA,1611695692.0
264,hilo,19.7297,-155.09,78.8,65.0,75.0,11.5,US,1611695641.0
265,beloha,-25.1667,45.05,74.5,82.0,68.0,9.71,MG,1611695692.0
266,sebastian,35.1668,-94.2669,46.99,57.0,1.0,5.75,US,1611695692.0
267,clyde river,70.4692,-68.5914,5.0,72.0,40.0,27.63,CA,1611695693.0
268,abu dhabi,24.4667,54.3667,68.0,77.0,20.0,3.44,AE,1611695693.0
269,kawalu,-7.3817,108.2082,72.37,87.0,99.0,1.92,ID,1611695693.0
270,namie,37.4833,141.0,46.99,98.0,99.0,1.01,JP,1611695499.0
271,salinas,36.6777,-121.6555,52.0,50.0,90.0,9.22,US,1611695603.0
272,bathsheba,13.2167,-59.5167,80.6,65.0,40.0,17.27,BB,1611695694.0
273,narsaq,60.9167,-46.05,23.0,30.0,20.0,23.02,GL,1611695694.0
274,iracoubo,5.4802,-53.2011,78.19,84.0,68.0,13.53,GF,1611695694.0
275,korla,41.7597,86.1469,19.98,82.0,0.0,2.19,CN,1611695694.0
276,kruisfontein,-34.0033,24.7314,72.0,82.0,87.0,1.01,ZA,1611695421.0
277,baykit,61.67,96.37,-44.81,72.0,55.0,1.92,RU,1611695694.0
278,mys shmidta,,,,,,,,
279,suntar,62.1444,117.6319,-51.21,76.0,63.0,1.83,RU,1611695695.0
280,kaniama,-7.5667,24.1833,66.58,94.0,100.0,3.58,CD,1611695695.0
281,polunochnoye,60.8697,60.4153,21.72,95.0,71.0,7.65,RU,1611695499.0
282,birao,10.2849,22.7882,75.76,19.0,0.0,5.35,CF,1611695695.0
283,gamba,-2.65,10.0,77.88,88.0,100.0,2.06,GA,1611695695.0
284,itarema,-2.9248,-39.9167,80.92,77.0,100.0,14.67,BR,1611695695.0
285,komsomolskiy,40.4272,71.7189,24.8,74.0,0.0,6.91,UZ,1611695695.0
286,vardo,70.3705,31.1107,24.8,100.0,90.0,32.21,NO,1611695696.0
287,salalah,17.0151,54.0924,68.0,68.0,0.0,5.75,OM,1611695696.0
288,college,64.8569,-147.8028,-8.0,83.0,75.0,0.81,US,1611695537.0
289,okhotsk,59.3833,143.3,-16.17,76.0,22.0,8.77,RU,1611695696.0
290,isangel,-19.55,169.2667,80.6,83.0,75.0,21.23,VU,1611695696.0
291,mattru,7.6244,-11.8332,77.07,81.0,1.0,5.01,SL,1611695696.0
292,tuktoyaktuk,69.4541,-133.0374,-16.6,76.0,40.0,12.66,CA,1611695697.0
293,kharan,28.5833,65.4167,46.15,37.0,0.0,4.92,PK,1611695697.0
294,kaitangata,-46.2817,169.8464,62.01,72.0,100.0,3.0,NZ,1611695697.0
295,ust-maya,60.4167,134.5333,-49.07,75.0,100.0,2.24,RU,1611695697.0
296,tapaua,,,,,,,,
297,kysyl-syr,63.8986,122.7617,-52.38,76.0,58.0,3.78,RU,1611695697.0
298,barentsburg,,,,,,,,
299,clarksville,36.5298,-87.3595,57.0,67.0,40.0,9.22,US,1611695587.0
300,victor harbor,-35.5667,138.6167,60.01,73.0,4.0,1.99,AU,1611695698.0
301,yumen,40.2833,97.2,19.53,77.0,0.0,29.08,CN,1611695698.0
302,mabaruma,8.2,-59.7833,78.39,80.0,99.0,6.67,GY,1611695698.0
303,rawson,-43.3002,-65.1023,68.99,30.0,86.0,11.21,AR,1611695446.0
304,tari,12.4086,4.4914,76.41,16.0,10.0,9.28,NG,1611695698.0
305,loiza,18.4313,-65.8802,80.6,69.0,75.0,17.27,PR,1611695699.0
306,lavrentiya,65.5833,-171.0,-3.84,87.0,65.0,4.97,RU,1611695699.0
307,merauke,-8.4667,140.3333,77.79,90.0,96.0,13.42,ID,1611695699.0
308,trinidad,-14.8333,-64.9,78.8,94.0,90.0,5.75,BO,1611695699.0
309,poya,-21.35,165.15,79.02,73.0,100.0,5.37,NC,1611695699.0
310,gornopravdinsk,60.05,69.9,34.02,97.0,100.0,12.01,RU,1611695699.0
311,newnan,33.3807,-84.7997,68.0,60.0,90.0,3.44,US,1611695691.0
312,verkhnevilyuysk,63.4453,120.3167,-51.57,76.0,82.0,3.67,RU,1611695700.0
313,desna,50.9273,30.7605,35.01,69.0,84.0,13.42,UA,1611695700.0
314,vallenar,-28.5708,-70.7581,82.99,25.0,0.0,8.77,CL,1611695700.0
315,kanchanaburi,14.6333,99.1,72.82,57.0,89.0,2.21,TH,1611695700.0
316,harper,4.375,-7.7169,78.53,83.0,29.0,8.03,LR,1611695700.0
317,along,28.1667,94.7667,55.33,60.0,89.0,2.13,IN,1611695700.0
318,gizo,-8.103,156.8419,84.22,73.0,85.0,11.61,SB,1611695701.0
319,chambersburg,39.9376,-77.6611,34.0,89.0,100.0,1.01,US,1611695545.0
320,zheleznodorozhnyy,55.7503,38.0042,36.0,80.0,90.0,13.42,RU,1611695701.0
321,nemuro,43.3236,145.575,31.51,98.0,100.0,20.2,JP,1611695702.0
322,sitka,57.0531,-135.33,35.6,55.0,20.0,6.22,US,1611695549.0
323,biloela,-24.4167,150.5,72.9,75.0,0.0,2.89,AU,1611695704.0
324,nsanje,-16.92,35.262,74.75,92.0,97.0,2.26,MW,1611695704.0
325,imari,33.2667,129.8833,53.01,36.0,44.0,7.0,JP,1611695704.0
326,kazlu ruda,54.7667,23.5,32.0,86.0,90.0,13.8,LT,1611695704.0
327,nogliki,51.8333,143.1667,0.41,93.0,100.0,8.93,RU,1611695705.0
328,malwan,,,,,,,,
329,krylovskaya,46.3194,39.9711,41.0,70.0,100.0,14.12,RU,1611695705.0
330,walvis bay,-22.9575,14.5053,69.01,82.0,15.0,5.75,NA,1611695705.0
331,ilulissat,69.2167,-51.1,12.2,62.0,75.0,19.57,GL,1611695705.0
332,oistins,13.0667,-59.5333,80.6,65.0,40.0,17.27,BB,1611695705.0
333,sena madureira,-9.0656,-68.6569,85.26,64.0,88.0,3.29,BR,1611695706.0
334,chiman,32.5463,73.8138,51.8,76.0,0.0,3.0,PK,1611695706.0
335,bandarbeyla,9.4942,50.8122,72.95,78.0,11.0,20.2,SO,1611695706.0
336,xihua,33.7833,114.5167,37.13,76.0,24.0,4.79,CN,1611695706.0
337,dharchula,29.85,80.5333,44.67,33.0,0.0,7.99,IN,1611695706.0
338,tateyama,34.9833,139.8667,44.6,93.0,75.0,2.3,JP,1611695707.0
339,campos,-21.75,-41.3,84.2,58.0,0.0,23.02,BR,1611695707.0
340,northam,51.0333,-4.2167,48.0,96.0,99.0,10.0,GB,1611695707.0
341,rajula,21.05,71.4333,60.1,32.0,39.0,12.39,IN,1611695707.0
342,prachuap khiri khan,12.2167,99.75,70.43,78.0,99.0,2.21,TH,1611695707.0
343,nome,64.5011,-165.4064,12.2,85.0,90.0,2.95,US,1611695707.0
344,puerto narino,-3.7703,-70.3831,87.8,79.0,40.0,6.91,CO,1611695708.0
345,blonduos,,,,,,,,
346,mount gambier,-37.8333,140.7667,51.8,71.0,75.0,9.22,AU,1611695708.0
347,cherskiy,68.75,161.3,-35.59,81.0,97.0,3.11,RU,1611695708.0
348,bilibino,68.0546,166.4372,-19.62,82.0,93.0,6.35,RU,1611695708.0
349,dodge city,37.7528,-100.0171,19.99,86.0,90.0,13.8,US,1611695522.0
350,shimoda,34.6667,138.95,48.99,94.0,100.0,18.39,JP,1611695709.0
351,opuwo,-18.0607,13.84,69.37,69.0,97.0,10.36,NA,1611695709.0
352,jaipur hat,,,,,,,,
353,camacha,33.0833,-16.3333,62.6,77.0,40.0,11.5,PT,1611695709.0
354,igarka,67.4667,86.5833,-24.86,85.0,100.0,21.94,RU,1611695709.0
355,oktyabrskiy,54.4815,53.471,22.98,97.0,100.0,11.74,RU,1611695709.0
356,xining,36.6167,101.7667,12.2,81.0,31.0,2.55,CN,1611695710.0
357,kanniyakumari,8.0833,77.5667,75.07,79.0,11.0,17.45,IN,1611695710.0
358,nanortalik,60.1432,-45.2371,14.81,83.0,0.0,8.08,GL,1611695710.0
359,darovskoy,58.77,47.9564,29.16,98.0,100.0,9.48,RU,1611695710.0
360,sembe,1.6481,14.5806,72.88,85.0,17.0,3.09,CG,1611695710.0
361,polonnaruwa,7.9333,81.0,67.42,91.0,95.0,1.9,LK,1611695710.0
362,araouane,18.9048,-3.5265,72.81,15.0,0.0,10.36,ML,1611695710.0
363,chagda,,,,,,,,
364,mandalgovi,45.7625,106.2708,-4.54,77.0,100.0,8.79,MN,1611695711.0
365,krasnoarmeyskiy,47.0114,42.2072,36.55,84.0,100.0,12.57,RU,1611695712.0
366,vaitupu,,,,,,,,
367,port lincoln,-34.7333,135.8667,61.52,74.0,98.0,15.32,AU,1611695712.0
368,castelo branco,39.8222,-7.4909,59.0,92.0,84.0,1.99,PT,1611695509.0
369,zenica,44.2014,17.9064,28.4,100.0,75.0,3.44,BA,1611695712.0
370,cagliari,39.245,9.0912,46.99,87.0,20.0,5.75,IT,1611695713.0
371,kargil,34.5667,76.1,-11.51,65.0,0.0,1.77,IN,1611695713.0
372,ipora,-16.4419,-51.1178,81.36,72.0,85.0,4.14,BR,1611695713.0
373,fairbanks,64.8378,-147.7164,-8.0,76.0,75.0,0.81,US,1611695434.0
374,prescott,34.54,-112.4685,30.0,80.0,90.0,9.22,US,1611695711.0
375,yerbogachen,61.2767,108.0108,-43.1,80.0,98.0,1.66,RU,1611695127.0
376,kilakarai,9.2333,78.7833,73.98,79.0,0.0,10.51,IN,1611695714.0
377,moba,33.2288,105.0179,28.94,94.0,99.0,1.92,CN,1611695714.0
378,liku,-0.7275,119.8922,73.98,77.0,100.0,1.54,ID,1611695714.0
379,isla mujeres,21.2311,-86.731,84.2,70.0,75.0,16.11,MX,1611695438.0
380,stokmarknes,68.5646,14.9108,26.01,63.0,13.0,3.0,NO,1611695714.0
381,victoria,22.2855,114.1577,64.0,79.0,5.0,1.01,HK,1611695712.0
382,grand gaube,-20.0064,57.6608,75.99,77.0,26.0,1.99,MU,1611695715.0
383,mentok,,,,,,,,
384,setermoen,68.861,18.3486,-0.4,85.0,0.0,2.3,NO,1611695715.0
385,tahara,34.6667,137.2667,55.99,96.0,100.0,1.01,JP,1611695715.0
386,umzimvubu,,,,,,,,
387,olafsvik,64.8945,-23.7142,26.22,87.0,100.0,22.24,IS,1611695715.0
388,araxa,-19.5933,-46.9406,82.4,47.0,40.0,9.22,BR,1611695463.0
389,vetlanda,57.4289,15.0776,24.8,93.0,90.0,10.36,SE,1611695716.0
390,titlagarh,20.3,83.15,63.27,53.0,0.0,1.79,IN,1611695716.0
391,puksoozero,62.5903,40.6066,26.83,99.0,89.0,5.64,RU,1611695716.0
392,kassala,15.451,36.4,70.25,74.0,22.0,9.89,SD,1611695716.0
393,souillac,-20.5167,57.5167,73.4,88.0,20.0,4.61,MU,1611695717.0
394,chekhov,55.1431,37.4711,35.01,96.0,100.0,14.92,RU,1611695716.0
395,piacabucu,-10.4056,-36.4344,78.78,78.0,98.0,12.06,BR,1611695717.0
396,bengkulu,-3.8004,102.2655,74.16,91.0,100.0,4.21,ID,1611695529.0
397,modakeke,7.3833,4.2667,75.7,80.0,54.0,3.44,NG,1611695717.0
398,vilhena,-12.7406,-60.1458,73.4,100.0,40.0,5.75,BR,1611695717.0
399,kirovskiy,45.0917,133.5136,7.65,95.0,100.0,4.7,RU,1611695717.0
400,awjilah,29.1081,21.2869,62.96,27.0,25.0,12.15,LY,1611695718.0
401,brownwood,31.7093,-98.9912,64.4,34.0,1.0,5.75,US,1611695718.0
402,lata,40.1629,-8.3327,60.01,97.0,100.0,4.0,PT,1611695718.0
403,luganville,-15.5333,167.1667,82.11,78.0,100.0,8.05,VU,1611695719.0
404,alausi,-2.2,-78.8333,69.8,49.0,75.0,13.8,EC,1611695719.0
405,kabalo,-6.05,26.9167,70.43,91.0,90.0,2.26,CD,1611695720.0
406,drayton valley,53.2168,-114.9854,1.58,90.0,99.0,4.92,CA,1611695485.0
407,chissamba,-12.1667,17.3333,63.84,90.0,100.0,6.71,AO,1611695720.0
408,lokosovo,61.1333,74.8167,0.48,94.0,100.0,2.75,RU,1611695721.0
409,tautira,-17.7333,-149.15,86.0,58.0,75.0,17.0,PF,1611695721.0
410,benghazi,32.1167,20.0667,61.72,70.0,97.0,30.27,LY,1611695721.0
411,lakes entrance,-37.8811,147.981,60.01,70.0,4.0,1.01,AU,1611695706.0
412,gat,31.61,34.7642,53.01,81.0,0.0,2.3,IL,1611695722.0
413,tual,-5.6667,132.75,83.28,77.0,100.0,22.53,ID,1611695722.0
414,maceio,-9.6658,-35.7353,78.8,78.0,75.0,13.8,BR,1611695722.0
415,sahiwal,30.6667,73.1,48.43,42.0,0.0,0.22,PK,1611695722.0
416,san carlos de bariloche,-41.1456,-71.3082,64.99,33.0,40.0,24.16,AR,1611695723.0
417,tabiauea,,,,,,,,
418,fort nelson,58.8053,-122.7002,-5.8,71.0,75.0,6.91,CA,1611695700.0
419,tulsipur,28.131,82.2973,48.0,50.0,0.0,3.96,NP,1611695723.0
420,mountain home,43.133,-115.6912,33.8,69.0,1.0,5.64,US,1611695723.0
421,keetmanshoop,-26.5833,18.1333,80.76,27.0,0.0,16.96,NA,1611695723.0
422,hay river,60.8156,-115.7999,-7.6,71.0,100.0,2.3,CA,1611695724.0
423,rosetta,31.4044,30.4164,59.0,77.0,0.0,3.44,EG,1611695724.0
424,touros,-5.1989,-35.4608,82.4,69.0,0.0,16.11,BR,1611695138.0
425,koutsouras,35.0339,25.9469,64.99,63.0,87.0,28.97,GR,1611695724.0
426,moranbah,-22.0016,148.0466,73.06,87.0,11.0,6.22,AU,1611695724.0
427,saint-pierre,-21.3393,55.4781,77.0,69.0,0.0,6.91,RE,1611695724.0
428,san policarpo,12.1791,125.5072,79.21,84.0,100.0,10.92,PH,1611695532.0
429,zatoka,46.0725,30.4654,35.6,93.0,90.0,11.18,UA,1611695725.0
430,maridi,4.9158,29.4742,78.13,38.0,79.0,2.35,SS,1611695725.0
431,huarmey,-10.0681,-78.1522,76.41,62.0,92.0,11.25,PE,1611695725.0
432,yuanping,38.7153,112.7575,25.32,73.0,16.0,1.12,CN,1611695725.0
433,homer,59.6425,-151.5483,28.99,69.0,1.0,4.61,US,1611695725.0
434,whitehorse,60.7161,-135.0538,1.0,78.0,75.0,5.75,CA,1611695502.0
435,vao,-22.6667,167.4833,77.14,75.0,3.0,21.5,NC,1611695726.0
436,tarudant,,,,,,,,
437,jaguey grande,22.5269,-81.1286,84.2,58.0,40.0,3.44,CU,1611695726.0
438,sterling,39.0062,-77.4286,37.4,93.0,90.0,2.89,US,1611695726.0
439,ketchikan,55.3422,-131.6461,33.8,60.0,1.0,5.75,US,1611695727.0
440,adrar,20.5022,-10.0711,70.57,18.0,0.0,7.72,MR,1611695727.0
441,padre paraiso,-17.0742,-41.4844,72.41,78.0,98.0,5.59,BR,1611695728.0
442,ha giang,22.8333,104.9833,66.15,83.0,100.0,3.27,VN,1611695728.0
443,fort-shevchenko,44.5086,50.263,36.05,77.0,78.0,19.75,KZ,1611695728.0
444,tambura,5.6,27.4667,74.88,32.0,0.0,3.02,SS,1611695728.0
445,volary,48.9088,13.8866,30.99,95.0,99.0,1.01,CZ,1611695729.0
446,biggar,55.6167,-3.5167,36.0,10.0,99.0,1.01,GB,1611695729.0
447,ostrovnoy,68.0531,39.5131,7.09,94.0,100.0,18.48,RU,1611695729.0
448,sechura,-5.5569,-80.8222,85.39,46.0,48.0,14.7,PE,1611695729.0
449,karratha,-20.7377,116.8463,84.61,24.0,15.0,12.82,AU,1611695729.0
450,saint-francois,46.4154,3.9054,33.01,86.0,0.0,2.3,FR,1611695730.0
451,xai-xai,-25.0519,33.6442,76.51,89.0,100.0,8.84,MZ,1611695730.0
452,ahuimanu,21.4447,-157.8378,78.8,65.0,75.0,11.5,US,1611695730.0
453,bolobo,-2.1667,16.2333,73.78,88.0,18.0,1.14,CD,1611695730.0
454,churapcha,62.0025,132.4325,-54.67,68.0,85.0,3.78,RU,1611695730.0
455,moshenskoye,58.5102,34.5911,33.1,95.0,100.0,11.21,RU,1611695730.0
456,kenora,49.8167,-94.4337,-5.01,65.0,20.0,8.05,CA,1611695731.0
457,port macquarie,-31.4333,152.9167,75.99,99.0,27.0,1.41,AU,1611695731.0
458,kavaratti,10.5669,72.642,80.78,68.0,2.0,10.02,IN,1611695731.0
459,baraboo,43.4711,-89.7443,25.0,68.0,90.0,6.91,US,1611695731.0
460,labuhan,-6.8844,112.2051,77.41,86.0,89.0,10.25,ID,1611695731.0
461,grand river south east,,,,,,,,
462,fare,-16.7,-151.0167,81.01,76.0,12.0,15.61,PF,1611695731.0
463,bumba,2.1833,22.4667,75.85,71.0,6.0,0.98,CD,1611695732.0
464,viedma,-40.8135,-62.9967,72.0,51.0,10.0,1.01,AR,1611695732.0
465,capinzal,-27.3436,-51.6119,75.49,90.0,100.0,2.86,BR,1611695732.0
466,bestobe,52.4994,73.0975,21.7,96.0,99.0,14.97,KZ,1611695732.0
467,pringsewu,-5.3582,104.9744,73.4,93.0,100.0,1.59,ID,1611695732.0
468,otoka,44.96,16.1792,31.39,92.0,18.0,3.24,BA,1611695461.0
469,swellendam,-34.0226,20.4417,62.6,77.0,74.0,1.14,ZA,1611695733.0
470,salinopolis,-0.6136,-47.3561,81.57,77.0,100.0,10.31,BR,1611695602.0
471,guerrero negro,27.9769,-114.0611,62.04,46.0,0.0,18.88,MX,1611695733.0
472,la ronge,55.1001,-105.2842,-20.2,69.0,37.0,3.44,CA,1611695733.0
473,san antonio de cortes,15.1167,-88.0333,89.6,48.0,20.0,4.61,HN,1611695733.0
474,krasnoselkup,65.7,82.4667,-27.27,85.0,100.0,19.51,RU,1611695734.0
475,jining,35.405,116.5814,36.41,79.0,89.0,6.22,CN,1611695734.0
476,beisfjord,68.3751,17.5988,26.01,63.0,59.0,3.0,NO,1611695734.0
477,yuyao,30.05,121.1494,46.99,87.0,90.0,4.47,CN,1611695734.0
478,codrington,-38.2667,141.9667,56.46,67.0,66.0,15.23,AU,1611695734.0
479,jerome,42.7241,-114.5186,30.2,69.0,75.0,3.44,US,1611695734.0
480,yabrud,33.9674,36.6574,37.4,70.0,20.0,6.91,SY,1611695735.0
481,puri,19.8,85.85,71.6,83.0,20.0,4.61,IN,1611695735.0
482,rungata,,,,,,,,
483,coquimbo,-29.9533,-71.3436,66.2,68.0,75.0,12.66,CL,1611695650.0
484,riyadh,24.6877,46.7219,57.2,26.0,0.0,7.61,SA,1611695490.0
485,namatanai,-3.6667,152.4333,81.09,79.0,100.0,5.17,PG,1611695736.0
486,atambua,-9.1061,124.8925,74.34,90.0,99.0,3.15,ID,1611695737.0
487,warrington,53.3925,-2.5802,41.0,93.0,90.0,6.91,GB,1611695737.0
488,bomet,-0.7813,35.3416,53.92,67.0,1.0,2.8,KE,1611695737.0
489,port victoria,0.0939,33.9756,72.55,76.0,51.0,7.4,KE,1611695737.0
490,kodiak,57.79,-152.4072,37.4,60.0,1.0,8.7,US,1611695737.0
491,carhuaz,-9.2819,-77.6447,62.71,56.0,100.0,7.96,PE,1611695737.0
492,garden city,42.3256,-83.331,33.8,86.0,90.0,10.36,US,1611695738.0
493,palabuhanratu,,,,,,,,
494,krasnyy chikoy,50.3643,108.7512,-18.8,82.0,76.0,2.44,RU,1611695738.0
495,obigarm,38.7173,69.7088,18.1,71.0,0.0,8.05,TJ,1611695738.0
496,vega de alatorre,20.0333,-96.6333,78.62,74.0,1.0,7.05,MX,1611695738.0
497,te anau,-45.4167,167.7167,62.83,75.0,99.0,8.72,NZ,1611695567.0
498,zaoyang,32.1272,112.7542,40.55,67.0,27.0,3.4,CN,1611695739.0
499,zhangye,38.9342,100.4517,16.68,80.0,72.0,1.48,CN,1611695739.0
500,buariki,,,,,,,,
501,rabaul,-4.1967,152.1721,80.92,78.0,99.0,3.04,PG,1611695739.0
502,erzin,36.9559,36.2,53.01,56.0,100.0,1.99,TR,1611695739.0
503,coruripe,-10.1256,-36.1756,78.3,78.0,70.0,12.66,BR,1611695739.0
504,simao,22.7886,100.9748,50.77,87.0,0.0,1.16,CN,1611695739.0
505,bairiki,1.3292,172.9752,80.6,89.0,40.0,8.05,KI,1611695740.0
506,humberto de campos,-2.5983,-43.4611,79.56,81.0,100.0,6.15,BR,1611695471.0
507,banda aceh,5.5577,95.3222,78.03,78.0,54.0,3.27,ID,1611695740.0
508,bolungarvik,,,,,,,,
509,inhambane,-23.865,35.3833,78.87,85.0,100.0,8.16,MZ,1611695740.0
510,lemon tree passage,-32.7327,152.036,77.0,83.0,75.0,16.11,AU,1611695740.0
511,madimba,-10.4,40.3333,78.17,75.0,34.0,3.0,TZ,1611695741.0
512,dingle,10.9995,122.6711,72.95,89.0,100.0,6.96,PH,1611695741.0
513,del rio,29.3627,-100.8968,78.8,27.0,1.0,16.11,US,1611695584.0
514,nuuk,64.1835,-51.7216,21.2,73.0,75.0,9.22,GL,1611695741.0
515,cayenne,4.9333,-52.3333,78.8,89.0,0.0,4.61,GF,1611695523.0
516,sobolevo,54.4299,31.8996,30.63,98.0,100.0,23.31,RU,1611695743.0
517,taoudenni,22.6783,-3.9836,73.26,19.0,0.0,12.57,ML,1611695743.0
518,merritt island,28.5392,-80.672,82.4,65.0,20.0,6.91,US,1611695743.0
519,beira,-19.8436,34.8389,80.6,83.0,20.0,6.13,MZ,1611695743.0
520,progreso,21.2833,-89.6667,91.4,49.0,75.0,16.11,MX,1611695576.0
521,mocajuba,-2.5842,-49.5072,80.33,82.0,99.0,4.25,BR,1611695744.0
522,tezu,27.9167,96.1667,59.13,40.0,55.0,3.36,IN,1611695744.0
523,soderhamn,61.3037,17.0592,14.0,86.0,92.0,4.0,SE,1611695744.0
524,deputatskiy,69.3,139.9,-39.87,83.0,100.0,3.02,RU,1611695744.0
525,bahile,9.9995,118.7878,72.45,83.0,18.0,1.14,PH,1611695744.0
526,vestmannaeyjar,63.4427,-20.2734,31.73,87.0,100.0,21.83,IS,1611695744.0
527,carahue,-38.7,-73.1667,68.0,45.0,0.0,13.8,CL,1611695744.0
528,pokhara,28.2333,83.9833,52.09,41.0,0.0,4.25,NP,1611695745.0
529,popondetta,-8.7537,148.2534,74.88,86.0,99.0,2.39,PG,1611695745.0
530,plouzane,48.3833,-4.6167,51.8,100.0,90.0,12.66,FR,1611695745.0
531,evensk,61.95,159.2333,0.12,87.0,99.0,12.41,RU,1611695745.0
532,breves,-1.6822,-50.4803,78.48,92.0,99.0,4.34,BR,1611695745.0
533,tura,25.5198,90.2201,55.81,59.0,0.0,2.66,IN,1611695745.0
534,awbari,26.5921,12.7805,60.1,32.0,0.0,7.0,LY,1611695746.0
535,hualmay,-11.0964,-77.6139,75.79,67.0,99.0,11.36,PE,1611695746.0
536,broome,42.2506,-75.833,27.0,86.0,90.0,12.66,US,1611695746.0
537,iquitos,-3.7481,-73.2472,82.4,74.0,75.0,3.44,PE,1611695746.0
538,norman wells,65.282,-126.8329,-16.6,76.0,75.0,3.44,CA,1611695747.0
539,manhattan,40.7834,-73.9662,35.6,86.0,90.0,6.91,US,1611695708.0
540,bereda,43.2686,-7.5406,57.0,100.0,100.0,7.0,ES,1611695747.0
541,mukdahan,16.5833,104.5,62.04,89.0,67.0,6.67,TH,1611695747.0
542,gandorhun,7.5,-11.8333,76.77,83.0,2.0,4.47,SL,1611695747.0
543,catabola,-12.15,17.2833,62.53,92.0,100.0,7.14,AO,1611695747.0
544,jumla,29.2747,82.1838,32.14,49.0,0.0,4.59,NP,1611695705.0
545,pandan,14.0453,124.1694,78.17,87.0,95.0,8.93,PH,1611695748.0
546,wairoa,-39.0333,177.3667,84.99,57.0,0.0,1.05,NZ,1611695748.0
547,monte carmelo,-18.7247,-47.4986,75.56,79.0,76.0,5.91,BR,1611695748.0
548,vestmanna,62.1564,-7.1664,30.2,74.0,2.0,5.75,FO,1611695748.0
549,la union,-5.4,-80.75,90.34,38.0,66.0,15.14,PE,1611695748.0
550,fort saint john,,,,,,,,
551,alice town,25.7167,-79.3,74.23,82.0,0.0,12.24,BS,1611695749.0
552,santa cruz,-17.8,-63.1667,78.8,78.0,75.0,20.71,BO,1611695749.0
553,shepetivka,50.1855,27.0637,28.0,96.0,89.0,11.81,UA,1611695749.0
554,hanmer springs,-42.5167,172.8167,77.02,31.0,0.0,11.12,NZ,1611695749.0
555,ribnitz-damgarten,54.25,12.4667,37.0,86.0,75.0,6.91,DE,1611695749.0
556,pimentel,-6.8367,-79.9342,82.4,54.0,0.0,17.27,PE,1611695749.0
557,kholmogory,64.2229,41.656,33.8,93.0,90.0,6.71,RU,1611695750.0
558,mvangue,2.9667,11.5167,70.68,88.0,76.0,3.83,CM,1611695473.0
559,martapura,-3.4167,114.85,73.4,100.0,84.0,1.14,ID,1611695750.0
560,arkansas city,37.062,-97.0384,32.0,74.0,90.0,6.91,US,1611695750.0
561,kaduna,10.5222,7.4383,75.52,19.0,95.0,8.01,NG,1611695654.0
562,saint anthony,45.0205,-93.218,21.2,53.0,1.0,3.44,US,1611695750.0
563,alofi,-19.0595,-169.9187,78.8,89.0,90.0,8.05,NU,1611695750.0
564,llangefni,53.2556,-4.3106,48.2,100.0,75.0,9.22,GB,1611695751.0
565,dudinka,69.4058,86.1778,-21.33,86.0,100.0,14.74,RU,1611695751.0
566,saumur,47.3333,-0.25,37.99,87.0,90.0,6.91,FR,1611695751.0
567,kamenskoye,,,,,,,,
568,gazli,40.1333,63.45,32.07,93.0,0.0,8.34,UZ,1611695751.0
569,chute-aux-outardes,49.1168,-68.399,28.4,93.0,90.0,4.61,CA,1611695751.0
570,inongo,-1.95,18.2667,77.05,78.0,63.0,2.93,CD,1611695751.0
571,den helder,52.9599,4.7593,42.01,93.0,90.0,10.36,NL,1611695752.0
572,manta,-0.95,-80.7333,82.4,78.0,40.0,6.91,EC,1611695752.0
573,agropoli,40.3469,14.9966,42.01,76.0,0.0,1.01,IT,1611695752.0
574,pisco,-13.7,-76.2167,78.8,57.0,16.0,27.63,PE,1611695662.0
575,kropotkin,45.4375,40.5756,41.0,70.0,100.0,11.63,RU,1611695752.0
576,winton,37.3894,-120.6133,53.6,43.0,1.0,10.36,US,1611695752.0
577,majitha,31.7583,74.9544,42.8,100.0,0.0,3.44,IN,1611695752.0
578,hashtrud,37.4779,47.0508,14.9,80.0,0.0,0.87,IR,1611695753.0
579,vila do maio,15.1333,-23.2167,73.4,56.0,0.0,14.97,CV,1611695753.0
580,dunedin,-45.8742,170.5036,72.0,39.0,76.0,8.99,NZ,1611695753.0
581,hamilton,39.1834,-84.5333,46.4,76.0,75.0,14.97,US,1611695606.0
582,paradwip,,,,,,,,
583,lufkin,31.3382,-94.7291,69.8,37.0,90.0,5.75,US,1611695681.0
584,juazeiro,-9.4117,-40.4986,93.2,27.0,20.0,6.91,BR,1611695754.0
585,carutapera,-1.195,-46.02,80.92,77.0,28.0,6.96,BR,1611695754.0
586,mitzic,0.7821,11.549,70.45,95.0,97.0,3.51,GA,1611695754.0
587,plettenberg bay,-34.0527,23.3716,67.39,82.0,44.0,4.63,ZA,1611695754.0
588,port moresby,-9.4431,147.1797,75.2,94.0,20.0,11.5,PG,1611695755.0
589,blackburn,53.75,-2.4833,39.0,94.0,100.0,4.0,GB,1611695755.0
590,ylojarvi,61.5563,23.5961,30.99,93.0,90.0,8.05,FI,1611695755.0
591,tazovskiy,67.4667,78.7,-26.79,85.0,100.0,12.55,RU,1611695755.0
592,sataua,,,,,,,,
593,birobidzhan,48.8,132.95,-2.54,91.0,99.0,3.09,RU,1611695755.0
594,pangnirtung,66.1451,-65.7125,-2.2,78.0,1.0,5.75,CA,1611695756.0
595,chibuto,-24.6867,33.5306,75.87,92.0,100.0,7.67,MZ,1611695756.0
596,amapa,1.0,-52.0,79.14,76.0,95.0,4.38,BR,1611695756.0
597,sao jose da coroa grande,-8.8978,-35.1478,78.73,79.0,4.0,10.38,BR,1611695756.0
598,kupang,-10.1667,123.5833,77.0,100.0,75.0,3.44,ID,1611695756.0
599,thohoyandou,-22.9456,30.485,69.35,96.0,100.0,0.6,ZA,1611695757.0
600,arequipa,-16.3989,-71.535,68.0,37.0,40.0,16.11,PE,1611695735.0
601,aromashevo,56.8602,68.6375,27.97,97.0,100.0,14.36,RU,1611695757.0
602,winslow,35.0242,-110.6974,28.4,80.0,90.0,4.61,US,1611695530.0
603,umm lajj,25.0213,37.2685,72.5,70.0,0.0,3.04,SA,1611695757.0
604,kalanguy,51.0167,116.5167,-13.88,88.0,100.0,3.24,RU,1611695757.0
605,obo,5.3998,26.4869,72.57,35.0,0.0,2.75,CF,1611695758.0
606,anastacio,-20.4836,-55.8069,83.39,82.0,100.0,3.78,BR,1611695758.0
607,ixtapa,20.7,-105.2,73.4,64.0,1.0,11.5,MX,1611695758.0
608,krasnyy oktyabr,56.1167,38.8833,32.5,94.0,99.0,12.82,RU,1611695758.0
609,navolato,24.7672,-107.6944,75.0,35.0,40.0,6.91,MX,1611695758.0
610,sioux lookout,50.1001,-91.917,-4.0,71.0,40.0,5.75,CA,1611695758.0
611,tessalit,20.1986,1.0114,67.89,19.0,0.0,10.25,ML,1611695759.0
612,liverpool,53.4106,-2.9779,44.01,93.0,90.0,6.91,GB,1611695625.0
613,aksarka,66.5606,67.7975,-30.89,82.0,3.0,10.94,RU,1611695759.0
614,angra,,,,,,,,
615,khirkiya,22.1674,76.8605,56.52,44.0,0.0,8.68,IN,1611695759.0
616,fukue,32.6881,128.8419,53.38,71.0,42.0,20.24,JP,1611695759.0
617,skibbereen,51.55,-9.2667,48.2,100.0,75.0,9.22,IE,1611695760.0
618,black river,18.0264,-77.8487,84.2,65.0,20.0,25.32,JM,1611695760.0
619,yarada,17.65,83.2667,73.4,94.0,40.0,2.3,IN,1611695760.0
620,derzhavinsk,51.1,66.3167,26.11,98.0,97.0,12.19,KZ,1611695760.0
621,sisophon,13.5859,102.9737,75.34,53.0,62.0,4.54,KH,1611695760.0
622,tyret pervaya,53.6703,102.3106,-25.98,85.0,80.0,5.39,RU,1611695760.0
623,tabou,4.423,-7.3528,78.66,84.0,46.0,8.57,CI,1611695760.0
624,yen bai,21.7,104.8667,65.93,82.0,90.0,2.57,VN,1611695654.0
625,bani walid,31.7566,13.9942,51.03,60.0,0.0,11.95,LY,1611695761.0
626,gizycko,54.0381,21.7644,30.88,98.0,100.0,16.58,PL,1611695761.0
627,dolinsk,47.35,142.8,6.8,92.0,75.0,13.42,RU,1611695761.0
628,nangal,31.3667,76.3833,48.81,54.0,0.0,3.69,IN,1611695761.0
629,port augusta,-32.5,137.7667,66.2,72.0,90.0,10.36,AU,1611695761.0
